{
"-LZoMkXV6hAVaX3u81Fu":{"name":"Meembee","city":"Sopot","address":"42 Bonner Place","img":"http://placeimg.com/250/200/arch","imgfullsize":"http://placeimg.com/1000/640/arch","openhour":"16:00","closehour":"2:00","email":"mcolter0@uol.com.br","phone":"3307832476","about":"enim lorem ipsum dolor sit amet consectetuer adipiscing elit proin interdum mauris non ligula pellentesque","coordinates":{"latitude":54.3932,"longitude":18.569}},
"-LZoMkXYtfc4H0gJWrvk":{"name":"Mudo","city":"Sopot","address":"647 Esch Way","img":"http://placeimg.com/250/200/arch","imgfullsize":"http://placeimg.com/1000/640/arch","openhour":"16:00","closehour":"2:00","email":"omartello1@reverbnation.com","phone":"7107774074","about":"justo morbi ut odio cras mi pede malesuada in imperdiet et commodo vulputate justo in blandit ultrices enim lorem ipsum dolor sit amet consectetuer adipiscing elit proin interdum mauris","coordinates":{"latitude":54.615,"longitude":18.4785}},
"-LZoMkXaOxSU8u3PFUnX":{"name":"Npath","city":"Wejherowo","address":"921 Carioca Crossing","img":"http://placeimg.com/250/200/arch","imgfullsize":"http://placeimg.com/1000/640/arch","openhour":"18:00","closehour":"5:00","email":"javann2@eventbrite.com","phone":"7268403758","about":"suscipit nulla elit ac nulla sed vel enim sit amet nunc viverra dapibus nulla suscipit","coordinates":{"latitude":54.4889,"longitude":18.2643}},
"-LZoMkXdHaW0SZzAtWu5":{"name":"Topicware","city":"Gdańsk","address":"7105 2nd Park","img":"http://placeimg.com/250/200/arch","imgfullsize":"http://placeimg.com/1000/640/arch","openhour":"18:00","closehour":"5:00","email":"mwaylen3@yahoo.co.jp","phone":"6183689799","about":"faucibus orci luctus et ultrices posuere cubilia curae donec pharetra magna vestibulum aliquet ultrices erat tortor sollicitudin mi sit amet lobortis sapien sapien non mi integer ac","coordinates":{"latitude":54.6085,"longitude":18.6826}},
"-LZoMkXh6bYxAdVP2wSN":{"name":"Skajo","city":"Sopot","address":"5 Parkside Avenue","img":"http://placeimg.com/250/200/arch","imgfullsize":"http://placeimg.com/1000/640/arch","openhour":"19:00","closehour":"3:00","email":"tbeacock4@msu.edu","phone":"7701842723","about":"sapien ut nunc vestibulum ante ipsum primis in faucibus orci luctus et ultrices posuere cubilia curae mauris viverra diam vitae","coordinates":{"latitude":54.5711,"longitude":18.5077}},
"-LZoMkXktaBdqf6pt7ma":{"name":"Nlounge","city":"Gdańsk","address":"6326 Rowland Point","img":"http://placeimg.com/250/200/arch","imgfullsize":"http://placeimg.com/1000/640/arch","openhour":"19:00","closehour":"3:00","email":"hcrace5@domainmarket.com","phone":"5488602316","about":"tortor quis turpis sed ante vivamus tortor duis mattis egestas metus aenean fermentum donec ut mauris eget massa tempor convallis","coordinates":{"latitude":54.327,"longitude":18.3741}},
"-LZoMkXnmyHkeqwU-k7h":{"name":"Thoughtmix","city":"Gdańsk","address":"8573 Loeprich Junction","img":"http://placeimg.com/250/200/arch","imgfullsize":"http://placeimg.com/1000/640/arch","openhour":"18:00","closehour":"3:00","email":"bclendennen6@wordpress.org","phone":"9843563045","about":"tempus semper est quam pharetra magna ac consequat metus sapien ut nunc vestibulum ante ipsum primis in faucibus orci luctus et ultrices posuere","coordinates":{"latitude":54.4986,"longitude":18.276}},
"-LZoMkXqmI2oW6UmV9U0":{"name":"Katz","city":"Gdynia","address":"9 Delladonna Center","img":"http://placeimg.com/250/200/arch","imgfullsize":"http://placeimg.com/1000/640/arch","openhour":"19:00","closehour":"2:00","email":"uchaldecott7@barnesandnoble.com","phone":"9171559816","about":"luctus ultricies eu nibh quisque id justo sit amet sapien dignissim vestibulum vestibulum ante ipsum primis in faucibus orci luctus et ultrices posuere cubilia curae nulla dapibus dolor vel est","coordinates":{"latitude":54.4121,"longitude":18.4091}},
"-LZoMkXtlzezzaYolllR":{"name":"Brainsphere","city":"Sopot","address":"9183 Maple Hill","img":"http://placeimg.com/250/200/arch","imgfullsize":"http://placeimg.com/1000/640/arch","openhour":"19:00","closehour":"3:00","email":"gchace8@shop-pro.jp","phone":"5008749372","about":"primis in faucibus orci luctus et ultrices posuere cubilia curae mauris viverra","coordinates":{"latitude":54.3369,"longitude":18.6933}},
"-LZoMkXwwbQrTZcFZf1y":{"name":"Photobug","city":"Gdańsk","address":"6 Moulton Junction","img":"http://placeimg.com/250/200/arch","imgfullsize":"http://placeimg.com/1000/640/arch","openhour":"18:00","closehour":"2:00","email":"dscruby9@hud.gov","phone":"8238697713","about":"porttitor id consequat in consequat ut nulla sed accumsan felis ut at dolor quis odio consequat varius integer ac","coordinates":{"latitude":54.5803,"longitude":18.3614}},
"-LZoMkXzP3PJHAypbxk2":{"name":"Yotz","city":"Sopot","address":"23 Norway Maple Junction","img":"http://placeimg.com/250/200/arch","imgfullsize":"http://placeimg.com/1000/640/arch","openhour":"18:00","closehour":"2:00","email":"cfallowesa@irs.gov","phone":"8406140580","about":"at turpis a pede posuere nonummy integer non velit donec diam neque vestibulum eget vulputate ut ultrices vel augue vestibulum ante ipsum primis in faucibus orci luctus","coordinates":{"latitude":54.3481,"longitude":18.3944}},
"-LZoMkY12MKmGhASvC1Z":{"name":"Skimia","city":"Wejherowo","address":"82 Mayfield Junction","img":"http://placeimg.com/250/200/arch","imgfullsize":"http://placeimg.com/1000/640/arch","openhour":"19:00","closehour":"2:00","email":"lsambeckb@timesonline.co.uk","phone":"3616296049","about":"etiam faucibus cursus urna ut tellus nulla ut erat id mauris vulputate elementum nullam varius nulla","coordinates":{"latitude":54.4213,"longitude":18.4913}},
"-LZoMkY4PwutLTCjcQMq":{"name":"Oyoyo","city":"Gdańsk","address":"4 Cody Point","img":"http://placeimg.com/250/200/arch","imgfullsize":"http://placeimg.com/1000/640/arch","openhour":"16:00","closehour":"2:00","email":"mnorrisc@xing.com","phone":"2198961602","about":"in porttitor pede justo eu massa donec dapibus duis at velit eu est congue elementum in hac habitasse platea dictumst morbi vestibulum velit id","coordinates":{"latitude":54.5432,"longitude":18.6503}},
"-LZoMkY7EiHUM-Jwy-O7":{"name":"Thoughtblab","city":"Sopot","address":"721 Florence Park","img":"http://placeimg.com/250/200/arch","imgfullsize":"http://placeimg.com/1000/640/arch","openhour":"18:00","closehour":"5:00","email":"bweyd@alibaba.com","phone":"2874018685","about":"lectus in quam fringilla rhoncus mauris enim leo rhoncus sed vestibulum sit amet cursus id turpis integer aliquet massa id lobortis convallis tortor risus","coordinates":{"latitude":54.3448,"longitude":18.6023}},
"-LZoMkYApN7ILZ4UFavY":{"name":"Divavu","city":"Gdynia","address":"17065 Novick Drive","img":"http://placeimg.com/250/200/arch","imgfullsize":"http://placeimg.com/1000/640/arch","openhour":"19:00","closehour":"2:00","email":"cidelle@51.la","phone":"7371947489","about":"accumsan odio curabitur convallis duis consequat dui nec nisi volutpat eleifend donec ut dolor morbi","coordinates":{"latitude":54.3474,"longitude":18.4868}},
"-LZoMkYD7GxIsDK002-C":{"name":"Yamia","city":"Wejherowo","address":"22 Saint Paul Parkway","img":"http://placeimg.com/250/200/arch","imgfullsize":"http://placeimg.com/1000/640/arch","openhour":"18:00","closehour":"2:00","email":"kmcavinf@mac.com","phone":"4427231051","about":"mi integer ac neque duis bibendum morbi non quam nec dui luctus rutrum nulla tellus in sagittis dui vel nisl duis ac nibh fusce lacus purus aliquet","coordinates":{"latitude":54.5566,"longitude":18.3576}},
"-LZoMkYG20FWrViJRMkv":{"name":"Dazzlesphere","city":"Wejherowo","address":"7 Cody Place","img":"http://placeimg.com/250/200/arch","imgfullsize":"http://placeimg.com/1000/640/arch","openhour":"18:00","closehour":"2:00","email":"mhanstockg@bbb.org","phone":"4549979518","about":"lacus at turpis donec posuere metus vitae ipsum aliquam non mauris morbi non lectus aliquam sit amet diam in magna bibendum imperdiet nullam","coordinates":{"latitude":54.5526,"longitude":18.2719}},
"-LZoMkYJT5yrZd4aBBeL":{"name":"Cogidoo","city":"Gdańsk","address":"33 Oak Lane","img":"http://placeimg.com/250/200/arch","imgfullsize":"http://placeimg.com/1000/640/arch","openhour":"18:00","closehour":"3:00","email":"acarikh@princeton.edu","phone":"9041874093","about":"nibh fusce lacus purus aliquet at feugiat non pretium quis lectus suspendisse potenti in eleifend quam a odio in hac habitasse platea dictumst maecenas ut massa quis","coordinates":{"latitude":54.3915,"longitude":18.6927}},
"-LZoMkYNMMSw6z2sYL3u":{"name":"Avamm","city":"Wejherowo","address":"51835 Victoria Terrace","img":"http://placeimg.com/250/200/arch","imgfullsize":"http://placeimg.com/1000/640/arch","openhour":"19:00","closehour":"5:00","email":"glouisi@symantec.com","phone":"4688053858","about":"mauris sit amet eros suspendisse accumsan tortor quis turpis sed ante vivamus tortor duis mattis egestas metus aenean fermentum donec ut mauris eget massa tempor convallis nulla","coordinates":{"latitude":54.5802,"longitude":18.4961}},
"-LZoMkYQ209ua06GDWQK":{"name":"Skippad","city":"Gdynia","address":"72052 West Hill","img":"http://placeimg.com/250/200/arch","imgfullsize":"http://placeimg.com/1000/640/arch","openhour":"18:00","closehour":"2:00","email":"ggoginj@deviantart.com","phone":"5322134874","about":"vestibulum ante ipsum primis in faucibus orci luctus et ultrices posuere","coordinates":{"latitude":54.3254,"longitude":18.5943}},
"-LZoMkYTiS_5GaLZrivg":{"name":"Oodoo","city":"Gdańsk","address":"65 Kim Crossing","img":"http://placeimg.com/250/200/arch","imgfullsize":"http://placeimg.com/1000/640/arch","openhour":"18:00","closehour":"2:00","email":"leastbrookk@360.cn","phone":"7118320172","about":"mi nulla ac enim in tempor turpis nec euismod scelerisque quam turpis adipiscing lorem vitae mattis nibh ligula nec sem duis aliquam convallis nunc proin at turpis a","coordinates":{"latitude":54.5073,"longitude":18.2109}},
"-LZoMkYWJy41zs1oKMrK":{"name":"Izio","city":"Sopot","address":"447 Alpine Plaza","img":"http://placeimg.com/250/200/arch","imgfullsize":"http://placeimg.com/1000/640/arch","openhour":"19:00","closehour":"3:00","email":"rreymersl@naver.com","phone":"7863430771","about":"nulla facilisi cras non velit nec nisi vulputate nonummy maecenas tincidunt lacus at velit vivamus vel nulla eget eros","coordinates":{"latitude":54.3905,"longitude":18.5271}},
"-LZoMkYZkjzoLpL3JZvt":{"name":"Brainverse","city":"Wejherowo","address":"9 Alpine Hill","img":"http://placeimg.com/250/200/arch","imgfullsize":"http://placeimg.com/1000/640/arch","openhour":"18:00","closehour":"3:00","email":"ewiggm@economist.com","phone":"4322231699","about":"accumsan odio curabitur convallis duis consequat dui nec nisi volutpat eleifend donec ut dolor morbi vel lectus in quam fringilla rhoncus mauris enim leo rhoncus sed","coordinates":{"latitude":54.3548,"longitude":18.3183}},
"-LZoMkYbJS-0ylr2Gh2U":{"name":"Thoughtsphere","city":"Wejherowo","address":"9997 Red Cloud Place","img":"http://placeimg.com/250/200/arch","imgfullsize":"http://placeimg.com/1000/640/arch","openhour":"16:00","closehour":"2:00","email":"tdungaten@jiathis.com","phone":"6612503053","about":"amet lobortis sapien sapien non mi integer ac neque duis bibendum morbi non quam nec dui luctus rutrum nulla tellus in sagittis dui vel nisl duis ac nibh","coordinates":{"latitude":54.5629,"longitude":18.2126}},
"-LZoMkYefJ5vtmFWxAFj":{"name":"Dynazzy","city":"Gdynia","address":"3 Kingsford Crossing","img":"http://placeimg.com/250/200/arch","imgfullsize":"http://placeimg.com/1000/640/arch","openhour":"16:00","closehour":"3:00","email":"gtrinbeyo@washingtonpost.com","phone":"5623142337","about":"massa donec dapibus duis at velit eu est congue elementum in hac habitasse platea dictumst morbi vestibulum velit id pretium iaculis diam erat fermentum justo","coordinates":{"latitude":54.3846,"longitude":18.2508}},
"-LZoMkYhPwA797qVYnD-":{"name":"Yozio","city":"Gdańsk","address":"33491 Dayton Drive","img":"http://placeimg.com/250/200/arch","imgfullsize":"http://placeimg.com/1000/640/arch","openhour":"18:00","closehour":"5:00","email":"achateaup@un.org","phone":"3627931807","about":"lectus in quam fringilla rhoncus mauris enim leo rhoncus sed vestibulum sit amet cursus id turpis integer aliquet massa id lobortis","coordinates":{"latitude":54.4561,"longitude":18.4463}},
"-LZoMkYkhWbQiID6Pgdx":{"name":"Browseblab","city":"Gdańsk","address":"67 Evergreen Parkway","img":"http://placeimg.com/250/200/arch","imgfullsize":"http://placeimg.com/1000/640/arch","openhour":"18:00","closehour":"3:00","email":"pdmychq@mit.edu","phone":"2817394691","about":"iaculis congue vivamus metus arcu adipiscing molestie hendrerit at vulputate vitae nisl aenean lectus pellentesque eget nunc donec quis","coordinates":{"latitude":54.4639,"longitude":18.5264}},
"-LZoMkYn0N10xu-BtgWI":{"name":"Ooba","city":"Gdańsk","address":"741 Elgar Junction","img":"http://placeimg.com/250/200/arch","imgfullsize":"http://placeimg.com/1000/640/arch","openhour":"16:00","closehour":"5:00","email":"jsamberr@free.fr","phone":"2846661689","about":"egestas metus aenean fermentum donec ut mauris eget massa tempor convallis nulla","coordinates":{"latitude":54.5274,"longitude":18.2923}},
"-LZoMkYquHdJtdqPhQiG":{"name":"Roombo","city":"Gdańsk","address":"3 Redwing Alley","img":"http://placeimg.com/250/200/arch","imgfullsize":"http://placeimg.com/1000/640/arch","openhour":"18:00","closehour":"3:00","email":"btweedys@sciencedirect.com","phone":"5715907776","about":"eget elit sodales scelerisque mauris sit amet eros suspendisse accumsan tortor quis turpis sed ante vivamus tortor duis mattis egestas metus aenean fermentum donec ut mauris eget massa","coordinates":{"latitude":54.4965,"longitude":18.6814}},
"-LZoMkYt8cyX8teKC8Vp":{"name":"Photojam","city":"Wejherowo","address":"3269 Algoma Alley","img":"http://placeimg.com/250/200/arch","imgfullsize":"http://placeimg.com/1000/640/arch","openhour":"19:00","closehour":"2:00","email":"athorowgoodt@gnu.org","phone":"6067689620","about":"quis tortor id nulla ultrices aliquet maecenas leo odio condimentum id luctus","coordinates":{"latitude":54.376,"longitude":18.5033}}
}